[
  {"id": 0,  "lat": 36.7000, "lon": 3.0700, "type": "intersection", "name": "Central Square"},
  {"id": 1,  "lat": 36.7100, "lon": 3.0800, "type": "intersection", "name": "North Junction"},
  {"id": 2,  "lat": 36.7200, "lon": 3.0600, "type": "intersection", "name": "Northwest Cross"},
  {"id": 3,  "lat": 36.7300, "lon": 3.0900, "type": "intersection", "name": "Far North"},
  {"id": 4,  "lat": 36.7000, "lon": 3.1000, "type": "intersection", "name": "East Gate"},
  {"id": 5,  "lat": 36.7150, "lon": 3.0500, "type": "intersection", "name": "West Bypass"},
  {"id": 6,  "lat": 36.6900, "lon": 3.0800, "type": "intersection", "name": "South Center"},
  {"id": 7,  "lat": 36.7250, "lon": 3.0750, "type": "intersection", "name": "Uptown Cross"},
  {"id": 8,  "lat": 36.7050, "lon": 3.0950, "type": "intersection", "name": "East Side"},
  {"id": 9,  "lat": 36.7400, "lon": 3.0650, "type": "intersection", "name": "Northern Heights"},
  {"id": 10, "lat": 36.6800, "lon": 3.0600, "type": "intersection", "name": "Southwest Corner"},
  {"id": 11, "lat": 36.6950, "lon": 3.1100, "type": "intersection", "name": "Far East"},
  {"id": 12, "lat": 36.7450, "lon": 3.0850, "type": "intersection", "name": "North Peak"},
  {"id": 13, "lat": 36.6850, "lon": 3.0450, "type": "intersection", "name": "West Edge"},
  {"id": 14, "lat": 36.7600, "lon": 3.0700, "type": "intersection", "name": "Mountain Road"},
  {"id": 15, "lat": 36.6700, "lon": 3.0900, "type": "intersection", "name": "South Gate"},
  {"id": 16, "lat": 36.7150, "lon": 3.1150, "type": "intersection", "name": "Northeast Cross"},
  {"id": 17, "lat": 36.7550, "lon": 3.0550, "type": "intersection", "name": "Highway North"},
  {"id": 18, "lat": 36.6650, "lon": 3.0700, "type": "intersection", "name": "Far South"},
  {"id": 19, "lat": 36.7000, "lon": 3.0400, "type": "intersection", "name": "West End"},



{"id": 20, "lat": 36.4642, "lon": 2.5855, "type": "hospital",     "name": "Isaad Hassani"},
{"id": 21, "lat": 36.724667, "lon": 3.020586, "type": "hospital",     "name": "Hopital de Tixeraine"},
 {"id": 22, "lat": 36.703597, "lon": 3.123409, "type": "hospital",     "name": "Salim Zemirli"},
 {"id": 23, "lat": 36.794673, "lon": 3.049683, "type": "hospital",     "name": "Hopital Maillot"},
 {"id": 24, "lat":36.773209, "lon": 3.039782, "type": "hospital",     "name": "Hopital Birtraria"},
  {"id": 25, "lat": 36.4536, "lon": 3.0306, "type": "hospital",     "name": "Mustapha Pacha"},
  {"id": 26, "lat": 36.754711, "lon": 3.001134, "type": "hospital",     "name": "BOUKHROUFA Abdelkader"},








  
  {"id": 23, "lat": 36.7080, "lon": 3.0720, "type": "depot",        "name": "Main Depot"},
  {"id": 24, "lat": 36.7300, "lon": 3.0600, "type": "depot",        "name": "North Depot"}
]
